Date,time,humidity,temperature,pressure,gyro_pitch,gyro_roll,gyro_yaw,accel_pitch,accel_roll,accel_yaw,accel_x,accel_y,accel_z,magnet_x,magnet_y,magnet_z,Lat_deg,lat_min,lat_sec,long_deg,long_min,long_sec
2019-04-14,23:30:29,39.06107,30.32143,39.06107,15.8474817518917,118.168734000175,29.493637930518,15.60273729091,117.052189316175,29.3662275817406,-0.003208863316104,0.024279257282615,0.013647023588419,7.31674003601074,-6.08660840988159,8.73125743865967,29,53,57.9,32,58,21.6
2019-04-14,23:30:40,39.05737,30.32143,39.05737,342.193119682792,223.841667877035,35.0888435212278,342.113114261949,227.945122586973,34.3709052620948,-0.003208863316104,0.023793673142791,0.011697448790073,8.05974769592285,-6.75089931488037,9.95285892486572,30,23,40.8,32,25,42.7
2019-04-14,23:30:51,39.30223,30.37835,39.30223,356.727671096242,351.903411795597,1.76604167288541,356.822884573602,353.315939739072,1.70039544411195,-0.002468356397003,0.02185133099556,0.013159629888833,8.56817626953125,-6.62498474121094,9.90499401092529,30,53,14.1,31,52,42.2
2019-04-14,23:31:01,39.09446,30.45424,39.09446,17.9514481011806,109.890162235526,28.5505937118143,17.6614416841164,108.822152875768,28.407065824143,-0.003455699188635,0.023308087140322,0.013159629888833,8.56146621704102,-6.79112434387207,9.89026927947998,31,19,57.4,31,22,22.6
2019-04-14,23:31:12,39.30223,30.3404,39.30223,344.61755680039,216.954310023669,38.6604757967271,344.499442339073,221.173877949498,37.9933029186003,-0.002962027676404,0.024036465212703,0.016083991155028,8.62384128570557,-6.5249137878418,9.91044807434082,31,49,11.3,30,48,39.4
2019-04-14,23:31:23,39.29481,30.24554,39.29481,354.655362033426,345.050703491891,4.69309170749428,354.897439305537,346.579417648903,4.50832954091674,-0.001234178198501,0.023550879210234,0.010966357775033,8.77906036376953,-6.44543218612671,9.42531108856201,32,18,14.6,30,14,33.1
2019-04-14,23:31:34,39.26884,30.35938,39.26884,18.8180061540112,102.31097452113,27.945975121201,18.5050776220924,101.495777783311,27.83104182049,-0.003702534828335,0.023550879210234,0.015840293839574,8.72129726409912,-6.33881759643555,9.56462287902832,32,47,7,29,40,3.2
2019-04-14,23:31:45,38.31535,30.28348,38.31535,346.809970684336,210.474345633538,41.4174270136894,346.642421021354,214.802008133171,40.7099628496487,-0.001727849594317,0.02306529507041,0.012915932573378,8.58808422088623,-5.72034931182861,9.40123176574707,33,15,48.2,29,5,9.1
2019-04-14,23:31:56,38.72717,30.35938,38.72717,352.871640202431,338.984663933388,6.09471952282766,353.040421007011,340.632177278181,5.95181702435218,-0.002468356397003,0.023793673142791,0.01218484248966,8.79057216644287,-5.62271642684937,9.16917324066162,33,44,17.9,28,29,50.1
2019-04-14,23:32:07,38.99058,30.35938,38.99058,19.2744045169933,95.6859505734062,27.2887623664314,18.9511128805564,94.9401963688784,27.1807856133899,-0.003455699188635,0.022336916998029,0.014621810987592,8.699875831604,-5.31719875335693,9.43972396850586,34,12,35.7,27,54,5.9
2019-04-14,23:32:18,38.98316,30.41629,38.98316,348.580569160615,204.530168602659,44.1544272480861,348.345258898425,208.953153222349,43.3500802657633,-0.000987342558801,0.023308087140322,0.015109204687178,8.28012275695801,-5.47344446182251,9.14095020294189,34,40,41.3,27,17,55.8
2019-04-14,23:32:29,38.94977,30.37835,38.94977,351.606844981835,333.203035159472,7.0681973569256,351.81130925596,334.96073653105,6.87840304847705,-0.002962027676404,0.024764843285084,0.011697448790073,8.10360813140869,-5.23171424865723,9.54099273681641,35,8,34.3,26,41,19.3
2019-04-14,23:32:40,39.08333,30.45424,39.08333,19.8568881720539,91.2709914259908,26.3236754197288,19.5607943488919,90.6900223653787,26.2471790085719,-0.001481013838202,0.024764843285084,0.013890719972551,8.52500343322754,-5.10642671585083,8.98444080352783,35,36,14.3,26,4,15.7
2019-04-14,23:32:51,39.18721,30.43527,39.18721,350.839705455016,201.219193421361,44.3815822644078,350.685536986391,205.623900454832,43.8639700385367,-0.002468356397003,0.022822501137853,0.011941145174205,8.67662048339844,-4.56240940093994,8.67333126068115,36,3,41.1,25,26,44.6
2019-04-14,23:33:01,39.09446,30.39732,39.09446,351.677173732171,329.557286793741,8.01304559934379,351.953902261489,331.47691999771,7.7193688093744,-0.001234178198501,0.02306529507041,0.013403326272965,8.80985260009766,-4.91408824920654,9.09799861907959,36,28,26.2,24,52,13.8
2019-04-14,23:33:12,38.80879,30.45424,38.80879,21.0826168450314,87.3085459714671,24.5258705924385,20.819444533669,86.7443381950782,24.4593069838821,-0.001234178198501,0.024279257282615,0.013647023588419,9.01762866973877,-4.8461766242981,9.0288782119751,36,55,26.5,24,13,48.5
2019-04-14,23:33:23,39.46176,30.54911,39.46176,353.403221872702,197.879736351223,44.8562701664399,353.191024116889,202.407427770889,44.2839447102225,-0.000987342558801,0.023793673142791,0.015840293839574,8.93055248260498,-4.8362889289856,8.69919395446777,37,22,12.4,23,34,54.1
2019-04-14,23:33:34,38.9609,30.47321,38.9609,351.684416294012,324.917740781132,10.5318426340997,351.909222579033,326.831556371475,10.2940180085208,-0.001234178198501,0.023550879210234,0.01218484248966,9.3571720123291,-4.42609882354736,8.5427942276001,37,48,43.3,22,55,29.9
2019-04-14,23:33:45,38.93864,30.53013,38.93864,22.0586952736558,82.9002872396275,25.2395963324008,21.7607948654584,82.4222218090508,25.1760960636872,-0.001727849594317,0.023793673142791,0.013403326272965,9.15730953216553,-4.40069913864136,8.42101955413818,38,14,59.1,22,15,35.4
2019-04-14,23:33:56,38.68636,30.43527,38.68636,355.680143979701,195.228297896559,47.530733188796,355.555772638217,199.791110148938,47.215041845358,-0.001974685117602,0.024036465212703,0.015840293839574,9.27635860443115,-4.5511155128479,7.78432083129883,38,40,59.1,21,35,10.1
2019-04-14,23:34:07,38.98687,30.49219,38.98687,353.341917509806,321.681504944826,13.3195638532729,353.513564859404,323.706321354466,13.1192275747273,-0.003949370235205,0.023308087140322,0.015596598386765,8.95621776580811,-4.28897047042847,7.3018159866333,39,6,43,20,54,13.4
2019-04-14,23:34:18,39.12043,30.58705,39.12043,24.5595809910871,80.0619201677587,26.3478986856202,24.1259783844599,79.6880902541056,26.2765232087936,-0.003208863316104,0.024522049352527,0.012672236189246,8.90159225463867,-4.13878965377808,7.42031240463257,39,32,10.3,20,12,44.8
2019-04-14,23:34:29,39.13898,30.64397,39.13898,358.443300957133,194.070799398295,49.7010975145538,358.328449725413,198.713948335692,49.4410039109597,-0.003455699188635,0.024036465212703,0.014865507371724,9.01276206970215,-4.44223737716675,7.28322792053223,39,57,20.6,19,30,43.8
2019-04-14,23:34:40,38.65668,30.58705,38.65668,354.614445785203,319.765015335423,15.1382246631939,354.76643713103,321.749960515783,14.966445405568,-0.001974685117602,0.023308087140322,0.011210055090487,9.31068706512451,-4.20265245437622,7.91463088989258,40,22,13.4,18,48,9.8
2019-04-14,23:34:51,38.6641,30.68192,38.6641,25.170905119918,78.4160631438391,26.797231217906,24.7712366006347,77.9848801317253,26.7206050331549,-0.003455699188635,0.022336916998029,0.012915932573378,9.29842853546143,-4.37797260284424,7.88020324707031,40,46,48.2,18,5,2.3
2019-04-14,23:35:01,38.98687,30.64397,38.98687,0.012446739101879,192.63697876697,49.7481609330298,359.928986076302,197.145572977717,49.5266100869221,-0.001481013838202,0.023550879210234,0.012672236189246,9.35667610168457,-4.15830612182617,8.05931091308594,41,8,53,17,25,20.7
2019-04-14,23:35:13,38.87186,30.625,38.87186,355.753971067553,318.233311263102,15.3844905488133,355.951239737388,320.290509599596,15.1468016732441,-0.001727849594317,0.023793673142791,0.012428538873792,9.63894844055176,-4.37372827529907,8.17245578765869,41,35,2,16,37,5.2
2019-04-14,23:35:24,38.66039,30.68192,38.66039,28.3398482249736,77.0432361018015,27.3321716337014,27.8975832309315,76.6620978857365,27.2567014584673,-0.001234178198501,0.024764843285084,0.011210055090487,9.86362075805664,-3.95568513870239,7.68600368499756,41,58,40,15,52,14.6
2019-04-14,23:35:34,39.02768,30.68192,39.02768,3.07452470440344,192.018942269732,52.2932191913708,2.9716592807387,196.639373997949,52.0587934386776,-0.000987342558801,0.024036465212703,0.013403326272965,9.76588249206543,-3.60131072998047,7.46995401382446,42,19,51.8,15,10,58
2019-04-14,23:35:45,38.94606,30.94754,38.94606,357.348585664442,315.452136780248,19.1301782424793,357.414714915655,317.581864895539,19.045097991083,-0.004196206107736,0.024279257282615,0.014621810987592,9.77176094055176,-3.86980295181274,7.64454793930054,42,42,51.2,14,24,59.8
2019-04-14,23:35:56,38.59732,30.92857,38.59732,29.7575461947635,74.6093460023917,30.2086767743483,29.2867651609366,74.3218770006042,30.1480964115049,-0.000740506919101,0.023793673142791,0.012428538873792,9.81647109985352,-3.3030834197998,7.27818250656128,43,5,29.6,13,38,25.4
2019-04-14,23:36:07,38.99429,30.85268,38.99429,5.13949366173928,191.445356643612,55.1165735074439,5.15348871934863,196.071798938299,55.1492354720549,-0.001974685117602,0.023793673142791,0.015840293839574,9.67934036254883,-3.31614446640015,7.10773324966431,43,27,46.6,12,51,14.8
2019-04-14,23:36:18,38.80879,30.87165,38.80879,359.227002358668,313.798551397283,22.3507285493562,359.294440711686,316.040318520624,22.2546465707543,-0.001234178198501,0.023793673142791,0.014134417288005,9.81056785583496,-3.29506087303162,7.43272066116333,43,49,41.5,12,3,27.4
2019-04-14,23:36:29,38.89783,30.92857,38.89783,31.0997637440357,73.0023800756061,31.7061752593061,30.574897857266,72.8079792314492,31.6606793692446,-0.000740506919101,0.024036465212703,0.015109204687178,9.7664966583252,-3.34341192245483,7.42883539199829,44,11,13.7,11,15,3
2019-04-14,23:36:40,38.60474,30.9096,38.60474,7.06768936160608,190.76251531153,57.4770254128978,7.15647072175885,195.414734740144,57.6827712012661,-0.004443041514605,0.025978805497289,0.015596598386765,9.90269660949707,-2.85804343223572,7.45771646499634,44,32,22.8,10,26,1.3
2019-04-14,23:36:51,38.69378,30.87165,38.69378,0.993316331985658,311.871311070126,25.0009853812937,1.10224877790237,313.975784560961,24.8629814091136,-0.000987342558801,0.025007635354996,0.01218484248966,9.68489933013916,-2.79854154586792,7.25368022918701,44,53,8.2,9,36,22.2
2019-04-14,23:37:02,39.26142,30.89062,39.26142,33.9151711350095,70.9789706849357,33.5665890156233,33.3752890773496,70.6831893429283,33.4942299915562,-0.000987342558801,0.023793673142791,0.011210055090487,9.95352554321289,-2.89654302597046,6.85335493087769,45,13,29.3,8,46,5.5
2019-04-14,23:37:13,38.69378,30.87165,38.69378,9.71502116503154,190.256808105382,60.4245662284601,9.83932036264202,194.913986251333,60.7192479100111,-0.003702534828335,0.025250427424908,0.016815081238747,9.94987392425537,-2.75349426269531,7.53195190429688,45,33,25.4,7,55,10.9
2019-04-14,23:37:24,38.63442,30.81473,38.63442,2.58400911963027,310.885117131341,28.895156264874,2.5920819763424,313.077908383238,28.8841459999319,-0.004443041514605,0.023793673142791,0.012915932573378,10.0458726882935,-2.80382013320923,6.68985891342163,45,52,56.1,7,3,38.5
2019-04-14,23:37:34,38.65297,30.9096,38.65297,34.9502999641033,70.897950981001,37.7982532064722,34.3156968430336,70.7118010053615,37.7454865800393,-0.001974685117602,0.024279257282615,0.015109204687178,10.0049953460693,-2.18844532966614,7.19849252700806,46,10,17.8,6,16,14.3
2019-04-14,23:37:45,38.627,30.96652,38.627,10.9443544703436,190.510139821698,64.8459457536953,11.0418007792322,195.197575705672,65.0692997697439,-0.001234178198501,0.023308087140322,0.012915932573378,10.6234655380249,-3.00131678581238,7.87550926208496,46,28,58.2,5,23,29.5
2019-04-14,23:37:56,38.58248,30.98549,38.58248,3.45161624682867,309.267031656587,31.870465214507,3.43113912625356,311.472069437666,31.898690971252,-0.004936712794006,0.023308087140322,0.013159629888833,10.2893180847168,-2.74997234344482,7.11258935928345,46,47,11.4,4,30,6.9
2019-04-14,23:38:07,38.4044,31.04241,38.4044,35.8603304634537,67.8746838581107,38.7477621992253,35.2336469467267,67.8417828368788,38.7384970476162,-0.002962027676404,0.023550879210234,0.013890719972551,10.5037269592285,-2.89993286132812,6.89596033096314,47,4,56.7,3,36,6.6
2019-04-14,23:38:18,38.81621,30.9096,38.81621,12.1674953553994,188.870689515219,67.1262590496174,12.3085225400608,193.574258306014,67.4518814881086,-0.001727849594317,0.025250427424908,0.012915932573378,10.6898021697998,-3.15316700935364,6.93562936782837,47,22,13.7,2,41,28.8
2019-04-14,23:38:29,38.71975,31.04241,38.71975,3.99825272124748,308.791408018638,35.5657683102131,3.96602233921466,311.103717335727,35.6147305212784,-0.003455699188635,0.023793673142791,0.014134417288005,10.5740299224854,-2.78495311737061,6.94918918609619,47,39,1.7,1,46,13.7
2019-04-14,23:38:40,38.4415,30.98549,38.4415,36.5428507766455,68.1030170820643,43.0953312851947,35.9249508831912,67.8607229514472,43.0274938463582,-0.002962027676404,0.023793673142791,0.011697448790073,10.4645109176636,-2.87585234642029,6.52956008911133,47,55,20.1,0,50,21.7
2019-04-14,23:38:51,38.39326,30.98549,38.39326,12.7381661982904,189.444056575285,71.318581350847,12.8663090848563,194.127107477813,71.6224223160751,-0.001974685117602,0.025250427424908,0.011941145174205,10.3798608779907,-2.1652340888977,6.42752265930176,48,11,8.2,0,6,6.8
2019-04-14,23:39:02,38.63442,31.09933,38.63442,5.10590663338256,308.592827098709,39.472376968272,5.10556469703724,310.820541107833,39.472861911703,-0.001727849594317,0.025250427424908,0.015840293839574,10.7831087112427,-2.62781548500061,5.39651203155518,48,26,25.6,1,3,11.5
2019-04-14,23:39:13,38.74201,31.04241,38.74201,37.5820879645251,67.9932354515346,46.7904875318337,36.9019582175427,67.8719722730102,46.7534064348297,-0.003702534828335,0.025250427424908,0.012428538873792,10.7892284393311,-2.24465870857239,5.43362760543823,48,41,11.6,2,0,51.7
2019-04-14,23:39:24,38.37471,31.13728,38.37471,14.0504444671094,190.167387268768,74.846872660968,13.9706029708065,187.463451980143,74.6681266103888,-0.002962027676404,0.024036465212703,0.014134417288005,10.9733934402466,-2.2745521068573,6.12282228469849,48,55,25.6,2,59,6.8
2019-04-14,23:39:34,38.97945,30.98549,38.97945,355.011286179283,290.103286449431,46.2730460606919,355.084877625609,292.796368567465,46.10921714326,-0.002715192036703,0.025250427424908,0.014621810987592,11.0940818786621,-2.42227172851562,6.30939102172852,49,7,53.8,3,52,34
2019-04-14,23:39:45,38.7012,31.1183,38.7012,28.325822431513,47.5659530592511,41.7582432079893,27.8433088402393,47.8870948936468,41.8270300431205,-0.003208863316104,0.023793673142791,0.016571385785937,11.3907699584961,-2.56806087493896,6.55931282043457,49,21,5.3,4,51,53.9
2019-04-14,23:39:56,38.15953,31.1183,38.15953,15.1046081796464,171.153106863849,75.9929032716153,14.9406272905054,168.889254323827,75.7577671792484,-0.004443041514605,0.024522049352527,0.013159629888833,11.4808187484741,-2.31393599510193,6.03880023956299,49,33,43.1,5,51,46.4
2019-04-14,23:40:07,38.2597,31.1942,38.2597,348.551125922651,274.33996799604,54.3286394696967,348.663615723186,277.318736436487,53.9817375768463,-0.003208863316104,0.023308087140322,0.014134417288005,11.3479480743408,-2.76218056678772,5.53569459915161,49,45,46.8,6,52,10.8
2019-04-14,23:40:18,38.02597,31.13728,38.02597,19.8093790837345,33.474316575031,40.91181543019,19.5162068739901,33.9725242334701,40.9764631706842,-0.001234178198501,0.023550879210234,0.014134417288005,11.5585536956787,-2.83162713050842,5.72815227508545,49,57,15.8,7,53,5.9
2019-04-14,23:40:29,38.23373,31.30804,38.23373,15.3806605202362,155.680815940802,76.1188246391537,15.193771176619,153.789973691733,75.923590511918,-0.003949370235205,0.02549321949482,0.013647023588419,11.8203630447388,-2.43866729736328,6.27413749694824,50,8,9.7,8,54,30.7
2019-04-14,23:40:40,38.18179,31.23214,38.18179,345.633033467695,260.657200295915,62.0592763836543,345.753930377325,263.883037169209,61.5307768362462,-0.001234178198501,0.024764843285084,0.014378113672137,12.0855522155762,-2.85806941986084,5.90461683273315,50,18,27.9,9,56,24.1
2019-04-14,23:40:51,39.02397,31.06138,39.02397,13.2549331882517,21.1167097342735,42.1902765786547,13.0491131215762,21.9769993809933,42.2700873391063,-0.002962027676404,0.02549321949482,0.011453751474619,11.9346990585327,-2.9124584197998,5.71845102310181,50,28,9.9,10,58,44.7
2019-04-14,23:41:02,38.56022,31.08036,38.56022,16.6845180195822,142.680042629303,76.4221328496264,16.5232487155418,141.008244546916,76.2806591413479,-0.001481013838202,0.024764843285084,0.012672236189246,12.1751384735107,-2.59058833122253,5.65876913070679,50,37,15.4,12,1,31.2
2019-04-14,23:41:13,38.01855,31.34598,38.01855,343.462956009882,247.583849394295,68.8353363044947,343.491714521382,251.277711320087,68.2020138438944,-0.002715192036703,0.024036465212703,0.012672236189246,11.8615388870239,-2.39506769180298,5.43507719039917,50,45,43.7,13,4,42.3
2019-04-14,23:41:24,38.60103,31.21317,38.60103,6.45691677055062,11.2872180138472,43.9021917771321,6.40060356839115,12.2697646316156,43.9274327412099,-0.004689877387136,0.024279257282615,0.015596598386765,11.8387489318848,-2.89826083183289,4.57133722305298,50,53,34.7,14,8,16.4
2019-04-14,23:41:35,37.97032,31.25112,37.97032,16.8647632966843,131.516303336593,76.8528035975524,16.6390801861287,130.090815536054,76.6942339257814,-0.001974685117602,0.023793673142791,0.014134417288005,11.9837007522583,-3.03186321258545,4.78227090835571,51,0,47.8,15,12,12
2019-04-14,23:41:46,38.12985,31.34598,38.12985,343.212385397538,237.820319372005,75.1595450607929,343.202498698715,241.670783875086,74.454806142231,-0.001727849594317,0.024522049352527,0.015596598386765,12.3331737518311,-2.7620415687561,4.89504289627075,51,7,22.7,16,16,27.4
2019-04-14,23:41:56,38.44521,31.27009,38.44521,3.00859673032671,2.63644426844505,45.8873486933559,3.1249844344442,3.7848447412909,45.824722688856,-0.001974685117602,0.025007635354996,0.013647023588419,12.1302127838135,-2.16487908363342,4.78730010986328,51,12,48.3,17,15,8.2
2019-04-14,23:42:07,38.13356,31.42188,38.13356,18.3734974428267,122.188354968241,76.7460614012034,18.1218049719118,120.957705143967,76.5982970886994,-0.003949370235205,0.025250427424908,0.013403326272965,12.3555889129639,-2.59690976142883,4.32135343551636,51,18,9.4,18,19,56.9
2019-04-14,23:42:18,38.37101,31.36496,38.37101,344.526144963634,229.381224501482,79.4700228044746,344.477657450716,233.333650068493,78.6631179163076,-0.002221520757303,0.024279257282615,0.014134417288005,12.625316619873,-2.30937337875366,4.34616851806641,51,22,51.5,19,25,0.4
2019-04-14,23:42:29,38.19292,31.36496,38.19292,0.84828340145852,355.483061859408,47.0747429296167,0.929237951791832,356.895883501017,47.0187797746523,-0.001727849594317,0.024522049352527,0.014621810987592,12.8552675247192,-2.86537289619446,3.72643065452576,51,26,54.2,20,30,16.8
2019-04-14,23:42:40,38.15211,31.42188,38.15211,19.9840526340212,115.243801110766,74.5787126039642,19.6943638207534,114.209874394966,74.4396362920844,-0.001234178198501,0.025736013427377,0.013159629888833,12.9948215484619,-2.72975492477417,3.58568549156189,51,30,17.4,21,35,44.3
2019-04-14,23:42:51,38.25229,31.36496,38.25229,347.206966038333,222.917912112547,80.916807134845,347.128476919486,226.989251273009,80.314869393481,-0.000987342558801,0.023793673142791,0.010966357775033,13.2323684692383,-2.77111387252808,3.3026442527771,51,33,0.9,22,41,20.9
2019-04-14,23:43:02,38.24857,31.34598,38.24857,0.37947869354015,349.085468696894,47.9332601422469,0.419103715844862,350.5987978528,47.9033097627364,-0.002468356397003,0.023308087140322,0.016571385785937,13.5285587310791,-2.58149337768555,3.21879434585571,51,35,4.6,23,47,4.7
2019-04-14,23:43:13,37.70691,31.49777,37.70691,21.9641449649754,108.457755453359,75.1378113988539,21.7358680900825,107.444052927691,75.0287469381871,-0.002468356397003,0.025250427424908,0.011210055090487,12.4410877227783,-2.82150173187256,4.38066244125366,51,36,28.3,24,52,53.7
2019-04-14,23:43:24,38.25229,31.36496,38.25229,348.837217787547,216.71787619536,85.0564891681414,348.744772884678,220.903866911229,84.5717847936914,-0.003702534828335,0.023793673142791,0.015596598386765,12.7858753204346,-2.66429138183594,4.08834266662598,51,37,11.9,25,58,45.9
2019-04-14,23:43:35,37.71804,31.51674,37.71804,358.591784894099,343.326750085001,51.5499511757008,358.659173354719,344.900593009407,51.4962522284462,-0.002468356397003,0.025007635354996,0.013403326272965,13.3018445968628,-2.92877578735352,3.18886828422546,51,37,15.5,27,4,39.3
2019-04-14,23:43:46,38.36729,31.32701,38.36729,22.3219307642681,102.728825003984,75.2733496727436,21.9978570711713,101.900835321849,75.1509731733845,-0.001234178198501,0.024764843285084,0.01535290107131,13.186749458313,-2.75105166435242,2.77980542182922,51,36,39,28,10,31.8
2019-04-14,23:43:56,38.06307,31.36496,38.06307,350.083884405425,211.470214535282,88.2934729101613,349.928649573516,215.859594624256,87.751866229736,-0.000987342558801,0.025250427424908,0.01535290107131,13.4946994781494,-3.24051332473755,2.8718626499176,51,35,31.1,29,10,22.6
2019-04-14,23:44:07,38.5157,31.51674,38.5157,356.810335381663,337.79854181986,53.8930373251899,356.912967725122,339.526523330812,53.7996618090467,-0.002468356397003,0.026464389637113,0.015840293839574,13.7843151092529,-2.88634252548218,2.29662466049194,51,33,38.3,30,16,7.9
2019-04-14,23:44:18,38.49343,31.45982,38.49343,23.6753908049141,96.6321913206414,75.837174958539,23.271088002279,95.9457846298118,75.7128040439423,-0.003455699188635,0.024522049352527,0.01535290107131,13.743124961853,-2.95874285697937,1.83177971839905,51,31,5.6,31,21,46.5
2019-04-14,23:44:29,37.79595,31.42188,37.79595,353.545566430099,207.157756036741,91.1936327034513,353.435563245309,211.495595518238,90.8001659959343,-0.002221520757303,0.023793673142791,0.013159629888833,14.0384378433228,-3.37900996208191,2.01066088676453,51,27,53.1,32,27,16.5
2019-04-14,23:44:40,38.20776,31.51674,38.20776,357.387952313497,333.287668033477,57.4305596359742,357.51558891229,335.026152667826,57.3133399294384,-0.001727849594317,0.023793673142791,0.014621810987592,13.972749710083,-3.03598427772522,1.90002775192261,51,24,1.1,33,32,35.9
2019-04-14,23:44:51,38.2597,31.44085,38.2597,25.3431078492724,93.0137346832871,76.9306199427664,24.9109412899182,92.2859848574114,76.7888661967319,-0.003949370235205,0.025250427424908,0.013647023588419,14.2349987030029,-2.99452304840088,1.87895548343658,51,19,29.7,34,37,42.8
2019-04-14,23:45:02,37.91467,31.53571,37.91467,355.829148825313,205.143178080668,94.6551111031112,355.62370868791,209.511493866241,93.997001886013,-0.001234178198501,0.024279257282615,0.013647023588419,14.2096786499023,-3.47633719444275,1.2272515296936,51,14,19.1,35,42,35.3
2019-04-14,23:45:13,38.36729,31.49777,38.36729,358.487289936709,331.309148353579,60.341401845126,358.627887032896,333.081095792219,60.20830194877,-0.001481013838202,0.025250427424908,0.010722661390901,14.3344745635986,-3.10505414009094,0.926469683647156,51,8,29.7,36,47,11.7
2019-04-14,23:45:24,37.89983,31.42188,37.89983,26.1859275796426,92.3490616543965,78.7839303023468,25.7912570512844,91.6789586251157,78.6640741427914,-0.002962027676404,0.025250427424908,0.013159629888833,14.4256572723389,-3.27250599861145,0.912187695503235,51,2,1.8,37,51,30.2
2019-04-14,23:45:35,38.0371,31.44085,38.0371,356.61827409074,203.846685232794,96.2583682371774,356.52938152657,208.233142000803,95.9731190468702,-0.003455699188635,0.025736013427377,0.01535290107131,14.4660234451294,-3.27687239646912,0.278008043766022,50,54,55.5,38,55,29.1
2019-04-14,23:45:46,37.95919,31.51674,37.95919,357.446674864886,328.638588784334,61.8405395754846,357.525079887029,330.463034764482,61.7630305887833,-0.002962027676404,0.026221597567201,0.011210055090487,14.5913066864014,-2.82651662826538,0.206022500991821,50,47,11.4,39,59,6.8
2019-04-14,23:45:57,38.17066,31.59263,38.4044,25.6963669406927,88.4399258263447,78.9643770700294,25.3047392616098,87.8569418599275,78.8616851758582,-0.001727849594317,0.024279257282615,0.01218484248966,14.6631336212158,-2.68543863296509,-0.245522260665894,50,38,49.8,41,2,21.6
2019-04-14,23:46:08,37.60674,31.47879,37.60674,357.4597205262,201.283615765612,98.014580627517,357.379439123026,205.633230493238,97.743763626926,-0.002962027676404,0.024279257282615,0.013159629888833,14.8720121383667,-3.28666567802429,-0.146447911858559,50,29,51.1,42,5,12.2
2019-04-14,23:46:19,38.10388,31.51674,38.10388,357.400082516019,326.35034905388,63.6595145741074,357.547553984163,328.173306052789,63.5138881108136,-0.003455699188635,0.024764843285084,0.01535290107131,14.9083299636841,-3.21265268325806,-0.309885382652283,50,20,15.7,43,7,37
2019-04-14,23:46:30,37.70691,31.51674,37.70691,27.1988104826096,86.9990291190388,80.6170506227407,26.7232124578706,86.3927678679302,80.4879600474274,-0.002468356397003,0.024036465212703,0.014621810987592,15.2063636779785,-3.15134191513062,-0.748584926128387,50,10,4.1,44,9,34.8
2019-04-14,23:46:41,37.80708,31.45982,37.80708,359.313510279683,200.039756355483,100.489199144948,359.279887873081,204.468410032184,100.388768043392,-0.003208863316104,0.024764843285084,0.011941145174205,15.3973789215088,-3.29219388961792,-1.07238817214966,49,59,16.8,45,11,4.3
2019-04-14,23:46:52,37.99629,31.55469,37.99629,358.767192369556,324.118209082174,66.928422620308,358.838362193656,326.191075872625,66.8412284253636,-0.002468356397003,0.025007635354996,0.012915932573378,15.1197032928467,-3.18745231628418,-1.77280521392822,49,47,54.2,46,12,4.3
2019-04-14,23:47:02,37.64013,31.55469,37.64013,28.7634702176761,84.7135317095367,82.9802687548084,28.2761686637943,84.184847747021,82.8647839163218,-0.001727849594317,0.024522049352527,0.012915932573378,15.0996932983398,-3.37087178230286,-2.81378149986267,49,37,3.5,47,7,5
2019-04-14,23:47:13,38.01855,31.49777,38.01855,1.49151374514097,199.20829010706,103.97518426335,1.47599128647847,203.698784316507,103.932652675388,-0.002962027676404,0.026949977502227,0.015109204687178,15.05260181427,-3.31566834449768,-3.11509299278259,49,24,35,48,7,5.6
2019-04-14,23:47:24,37.76256,31.64955,37.76256,358.885924215941,321.952386832214,69.4714932936005,359.022111891411,323.85461500663,69.3272533587082,-0.000740506919101,0.024036465212703,0.011697448790073,15.0743112564087,-2.96586441993713,-3.03107309341431,49,11,32.9,49,6,33.7
2019-04-14,23:47:35,37.67352,31.63058,37.67352,28.8643999230414,81.8322847100585,83.4106458046001,28.3720935480452,81.4405528705908,83.324749345598,-0.004689877387136,0.02549321949482,0.014865507371724,15.3135423660278,-3.01545786857605,-3.04138660430908,48,57,57.5,50,5,28.5
2019-04-14,23:47:46,38.28938,31.64955,38.28938,1.63558708745058,196.172530568178,105.683100386068,1.6111620108135,200.750423878244,105.623274759128,-0.003455699188635,0.024764843285084,0.014865507371724,15.4720058441162,-2.94286894798279,-3.1631588935852,48,43,49.5,51,3,49.2
2019-04-14,23:47:57,37.52882,31.6875,37.52882,358.938454453796,319.974036199499,72.3282335743367,359.020086420157,321.985024891163,72.2334168882786,-0.004443041514605,0.024764843285084,0.012915932573378,15.8095455169678,-2.55753326416016,-3.88411569595337,48,29,9.5,52,1,35
2019-04-14,23:48:08,37.89612,31.64955,37.89612,30.1791088854313,79.5292815257136,86.0085560667386,29.6687673959317,79.1265394213038,85.9166285506994,-0.003208863316104,0.026464389637113,0.012428538873792,16.1270141601563,-2.28561687469482,-4.55789995193481,48,13,58,52,58,45.4
2019-04-14,23:48:19,38.07791,31.64955,38.07791,3.4985885249679,195.618971056705,108.954624394721,3.48967598187468,200.149572136958,108.931408581732,-0.001727849594317,0.025250427424908,0.013647023588419,16.0366554260254,-2.11809158325195,-4.88333082199097,47,58,15.6,53,55,19.8
2019-04-14,23:48:30,37.66238,31.6875,37.66238,0.333052136843428,318.457942524525,76.3854820545401,0.388871270865975,320.616234490925,76.311634049234,-0.003949370235205,0.024522049352527,0.014621810987592,16.0272388458252,-2.48485970497131,-4.78004884719849,47,42,3,54,51,17.6
2019-04-14,23:48:41,37.72546,31.63058,37.72546,31.5233959820219,78.8162644178776,88.9652971471129,31.0470654194944,78.4879782056101,88.8945568778791,-0.001481013838202,0.025007635354996,0.014134417288005,15.7044115066528,-2.37820482254028,-4.89877462387085,47,25,20.7,55,46,38.6
2019-04-14,23:48:52,37.7403,31.64955,37.7403,5.25421778790704,195.091393584835,112.020429935762,5.23977706045434,199.648482138689,111.984052348242,-0.002221520757303,0.024036465212703,0.01535290107131,15.7920274734497,-2.37611365318298,-4.93638277053833,47,8,9.2,56,41,22.4
2019-04-14,23:49:03,37.74772,31.66853,37.74772,0.754583558051406,316.752495515192,78.6640946333589,0.771851823737932,318.901501839415,78.6414662166387,-0.002468356397003,0.025007635354996,0.014134417288005,15.5878171920776,-1.92735624313355,-5.65258598327637,46,50,29.3,57,35,28.6
2019-04-14,23:49:13,37.72917,31.63058,37.72917,31.9715485991286,77.3626908794722,90.5828020557879,31.4446643914592,77.0582966689214,90.5107913713684,-0.002468356397003,0.025736013427377,0.012428538873792,16.0038166046143,-1.71691608428955,-5.53542327880859,46,34,1.5,58,24,7.1
2019-04-14,23:49:24,38.19663,31.63058,38.19663,6.88264673038574,194.988694860475,114.656910276143,6.90149976004227,199.511687109992,114.707248770326,-0.001727849594317,0.026464389637113,0.013647023588419,16.4240493774414,-1.36881220340729,-6.46777248382568,46,15,28.9,59,17,1.3
2019-04-14,23:49:35,37.86644,31.6875,37.86644,2.75106017880315,316.299753010963,82.0530569146008,2.80759685621452,318.395381406823,81.9820297774219,-0.000987342558801,0.024279257282615,0.010235267691314,16.6984977722168,-0.889629483222961,-7.45717144012451,45,56,29.5,60,9,17.7
2019-04-14,23:49:46,37.38042,31.72545,37.38042,33.8389428087776,76.8324154828799,93.6906883923054,33.2763981834516,76.4793151933578,93.6009875179356,-0.001481013838202,0.024036465212703,0.00999157037586,16.3745899200439,-0.862019836902618,-7.23131608963013,45,37,3.9,61,0,56.1
2019-04-14,23:49:57,37.40639,31.72545,37.40639,7.50737766678377,194.696485707403,118.317837029757,7.57689703970346,199.179917501248,118.517688364871,-0.003208863316104,0.026464389637113,0.011941145174205,16.5450057983398,-0.89528614282608,-7.26787185668945,45,17,12.8,61,51,56.7
2019-04-14,23:50:08,37.87757,31.70647,37.87757,2.91527948423482,315.499627085547,85.856311150139,2.94362583650744,317.61123470897,85.8202614116997,-0.002715192036703,0.025250427424908,0.011697448790073,16.4487762451172,-0.991593182086945,-7.05973625183106,44,56,56.7,62,42,19.4
2019-04-14,23:50:19,37.64754,31.78237,37.64754,34.9613580403695,75.5443852393881,96.545680144614,34.3153177675347,75.189037817629,96.4429745900646,-0.005183548666537,0.023550879210234,0.015109204687178,16.2348041534424,-0.60902738571167,-7.63038492202759,44,36,16.2,63,32,4.4
2019-04-14,23:50:30,37.59932,31.66853,37.59932,9.72707644891661,194.076345511901,121.231418144766,9.83454179154395,198.747102073923,121.480965936281,-0.001974685117602,0.02670718356967,0.014865507371724,16.3557205200195,-0.195875912904739,-8.07400703430176,44,15,11.9,64,21,12
2019-04-14,23:50:41,37.85902,31.72545,37.85902,4.61506960283158,314.029947961079,88.890253858702,4.59382728762602,316.186429927349,88.9183054456233,-0.002468356397003,0.024036465212703,0.013890719972551,16.8304424285889,-0.313683182001114,-8.56376647949219,43,53,44.4,65,9,42.2
2019-04-14,23:50:52,37.9629,31.63058,37.9629,36.9564938629707,74.7576157488943,100.032792244229,36.270063266479,74.5026311267994,99.954368012179,-0.003702534828335,0.025250427424908,0.015840293839574,16.9055461883545,0.074994996190071,-9.21362018585205,43,31,54.1,65,57,35.4
2019-04-14,23:51:03,37.373,31.64955,37.373,11.1929562806591,194.114922420334,125.512717320313,11.3231652994489,198.683062220265,125.865059458838,-0.002962027676404,0.026221597567201,0.014134417288005,16.8629264831543,0.450130760669708,-9.19011974334717,43,9,41.8,66,44,51.9
2019-04-14,23:51:13,37.55479,31.66853,37.55479,6.59372802094691,313.164894257413,93.3910684839844,6.53979642037367,315.457314063639,93.4714461501372,-0.002715192036703,0.025007635354996,0.013647023588419,16.7031269073486,0.638793706893921,-9.20437622070313,42,49,11.8,67,27,18.8
2019-04-14,23:51:24,37.66981,31.85826,36.82021,37.4826984668176,75.0940162258958,104.439575655208,36.8730118758402,74.7774232974873,104.35126130924,-0.000740506919101,0.025736013427377,0.011697448790073,16.7812824249268,1.11391389369965,-9.48164367675781,42,26,18.7,68,13,26
2019-04-14,23:51:35,37.51769,31.74442,37.51769,11.6423921195561,194.771549486382,129.638629692243,11.7352733007581,199.395614875237,129.869749633378,-0.001481013838202,0.025978805497289,0.013403326272965,16.9360065460205,1.38815951347351,-10.4905052185059,42,3,5,68,58,57.4
2019-04-14,23:51:46,37.55109,31.83929,37.55109,7.16010011352906,313.484854469082,97.7446515515181,7.1098747443542,315.698832967785,97.8144424244573,-0.001974685117602,0.024522049352527,0.014621810987592,16.818265914917,1.47460949420929,-10.8833198547363,41,39,31.3,69,43,53.5
2019-04-14,23:51:57,37.64754,31.74442,37.69578,38.6995752146309,75.4756667061486,108.541705308448,38.07946575498,75.1484323430133,108.448247830034,-0.001481013838202,0.023793673142791,0.011697448790073,17.2515487670898,1.65216398239136,-11.1025066375732,41,15,38.1,70,28,14.7
2019-04-14,23:52:08,37.48059,31.74442,37.48059,12.6682609196826,195.643901247176,133.578187182858,12.7987252167927,200.30270497815,133.897129696341,-0.001974685117602,0.024764843285084,0.014378113672137,16.8950309753418,2.14940977096558,-11.4838256835938,40,51,25.9,71,12,1.4
2019-04-14,23:52:19,37.64013,31.85826,37.64013,8.08923635953528,313.029007643876,101.229414066059,8.05555242786972,315.286890598564,101.278297729948,-0.000987342558801,0.025736013427377,0.013647023588419,16.6154899597168,2.23934245109558,-11.7867155075073,40,26,55.1,71,55,14
2019-04-14,23:52:30,37.77369,31.87723,37.77369,39.4069915673474,75.1006073584449,112.537365972905,38.7003060448721,74.8691595682298,112.463244760032,-0.004936712794006,0.024279257282615,0.013403326272965,16.7539024353027,2.7127959728241,-11.795241355896,40,2,6.4,72,37,53.2
2019-04-14,23:52:41,37.64013,31.89621,37.64013,13.9522297619392,197.007917345184,137.493729728351,14.0793575116397,201.517986876792,137.881479567533,-0.003949370235205,0.024522049352527,0.012672236189246,17.1635417938232,2.97775983810425,-11.6452789306641,39,37,0,73,19,59.3
2019-04-14,23:52:52,37.71062,31.85826,37.71062,9.27415123712743,313.654950085078,104.708268466967,9.20813489747832,315.875389942736,104.800551152843,-0.002221520757303,0.024522049352527,0.012428538873792,17.1010913848877,3.19389939308166,-11.8111953735352,39,11,36.6,74,1,32.9
2019-04-14,23:53:03,37.62157,31.82031,37.62157,40.811237479567,75.8220529197166,115.26343107444,40.037472669253,75.5284435778653,115.160909934999,-0.004443041514605,0.025007635354996,0.014134417288005,17.0984916687012,3.5725040435791,-11.9004564285278,38,45,56.5,74,42,34.5
2019-04-14,23:53:14,37.38042,31.83929,37.38042,14.161732154351,197.831201026981,140.483645037524,14.2553697790037,202.324440972474,140.770512982665,-0.000493671279401,0.02549321949482,0.011941145174205,17.0304546356201,4.0584602355957,-12.2934598922729,38,20,0.3,75,23,4.6
2019-04-14,23:53:25,37.49172,31.82031,37.49172,10.5425959131743,314.456035652072,107.49665221449,10.4507956094083,316.645094205588,107.621152902681,-0.002962027676404,0.024522049352527,0.012428538873792,17.1730041503906,4.13207817077637,-12.7109718322754,37,53,48.3,76,3,3.8
2019-04-14,23:53:36,37.42123,31.85826,37.42123,42.3129604365265,77.6016928589093,120.262596792135,41.5221474740441,77.1427451278194,120.097128629302,-0.003949370235205,0.024764843285084,0.013647023588419,17.3964538574219,4.97498369216919,-12.5597915649414,37,27,20.9,76,42,32.6
2019-04-14,23:53:46,37.53996,31.89621,37.53996,15.5623452597058,199.3982240075,144.32543520036,15.752748735651,203.984204261543,144.878243391024,-0.004196206107736,0.025250427424908,0.013159629888833,17.4370956420898,4.84910774230957,-12.9535026550293,37,3,5,77,18,0.1
2019-04-14,23:53:57,37.55109,31.91518,37.55109,12.5739915025317,315.339848470293,111.87149766091,12.4536375929406,317.57440974406,112.040872691948,-0.002221520757303,0.024764843285084,0.014134417288005,17.3880348205566,5.04407739639282,-13.1441888809204,36,36,9.6,77,56,32.4
2019-04-14,23:54:08,37.60303,31.83929,37.60303,42.9760283709621,79.2254952019989,125.424717163047,42.2674303955192,78.8881794796487,125.313344098441,-0.000987342558801,0.02549321949482,0.012672236189246,17.6792221069336,5.1878833770752,-13.7961845397949,36,9,0,78,34,36
2019-04-14,23:54:19,37.43979,31.78237,37.43979,14.6005624170142,200.442997063702,149.732854985124,14.7529029562622,205.084055963212,150.127435013475,-0.003702534828335,0.024764843285084,0.014865507371724,17.1688346862793,6.09290218353272,-13.5967273712158,35,41,36.7,79,12,11.3
2019-04-14,23:54:30,37.42123,31.89621,37.42123,12.5516439773411,316.23699040268,117.093498300275,12.4929000816107,318.386252858997,117.171239513408,-0.000740506919101,0.025007635354996,0.011697448790073,17.5496997833252,6.59076499938965,-13.4100608825684,35,14,0.1,79,49,18.9
2019-04-14,23:54:41,37.58448,31.95312,37.58448,44.1903847789716,79.394713138686,130.471502959634,43.3809117396767,79.0326926221078,130.337002874498,-0.003208863316104,0.025250427424908,0.013890719972551,18.0107612609863,6.63983392715454,-13.7156810760498,34,46,10.4,80,25,59.5
2019-04-14,23:54:52,37.39155,31.80134,37.39155,15.9284160784618,201.150700284364,154.591332466294,16.0955337319791,205.683773893096,155.114402013312,-0.004443041514605,0.026464389637113,0.011941145174205,17.8799247741699,7.03683137893677,-13.3051872253418,34,18,8.2,81,2,13.5
2019-04-14,23:55:03,37.45833,31.89621,37.45833,13.6606882598591,315.800227126014,121.257236259828,13.5286052079157,317.912934409893,121.424466611467,-0.002962027676404,0.025007635354996,0.014621810987592,17.49778175354,7.41853761672974,-13.3527898788452,33,49,53.7,81,38,1.6
2019-04-14,23:55:14,37.66238,32.06696,37.66238,44.7230234210167,81.1411720188908,136.014256112613,43.9788094241467,80.6120782450249,135.82887111816,-0.002962027676404,0.025250427424908,0.01218484248966,17.8238124847412,7.78059196472168,-14.1993236541748,33,21,27.2,82,13,24.2
2019-04-14,23:55:25,37.02797,32.04799,37.02797,15.9281531161788,202.994195662107,158.987447121789,16.0093264993698,207.407604356581,159.273673029148,-0.002221520757303,0.026221597567201,0.010966357775033,18.2475471496582,8.28397941589356,-14.0646743774414,32,52,49.2,82,48,22
2019-04-14,23:55:36,37.36187,31.93415,37.36187,14.5510435455316,316.987269607533,125.024304153144,14.4062640256949,319.070173360969,125.202858958426,-0.004196206107736,0.025007635354996,0.013159629888833,17.8421478271484,8.78455543518066,-14.0570068359375,32,23,59.9,83,22,55.5
2019-04-14,23:55:47,37.36187,31.91518,37.36187,45.7060549822162,81.0764969576399,139.705317660844,44.915972849975,80.6610302108064,139.551911612086,-0.002962027676404,0.02306529507041,0.013890719972551,17.6388683319092,8.9738302230835,-14.2473993301392,31,54,59.7,83,57,5.2
2019-04-14,23:55:58,36.47517,31.95312,36.47517,17.8532351035577,202.87509082336,163.013133297838,18.0389855131308,207.43715175493,163.600010472082,-0.003455699188635,0.025978805497289,0.013890719972551,17.8332977294922,9.06256771087647,-14.0523900985718,31,25,48.9,84,30,51.7
2019-04-14,23:56:09,37.51398,31.99107,37.51398,16.3357344096155,315.98085489371,129.57751315955,16.1893173519253,318.111225046783,129.766012720264,-0.001974685117602,0.02549321949482,0.014865507371724,17.8855724334717,9.733717918396,-13.4912977218628,30,56,27.8,85,4,15.5
2019-04-14,23:56:20,37.13185,32.04799,37.13185,45.1952866058935,80.4747026502484,144.141894356983,44.3565701116672,80.0549328842378,143.980032534032,-0.002221520757303,0.025007635354996,0.014621810987592,17.9755706787109,9.77662181854248,-13.6536884307861,30,26,56.7,85,37,17.2
2019-04-14,23:56:31,37.55851,32.06696,37.55851,16.584826286004,202.17461394284,167.53945867967,16.761977487412,206.700912003916,168.112183701954,-0.004196206107736,0.02549321949482,0.01535290107131,18.3799438476563,10.194769859314,-13.7854089736938,29,57,15.8,86,9,57.3
2019-04-14,23:56:42,37.70691,31.93415,37.70691,14.4554208971514,316.801761669675,134.749974436865,14.2803640024977,318.918840274623,134.970849094245,-0.003949370235205,0.023793673142791,0.013890719972551,18.2363128662109,10.4645004272461,-13.7270984649658,29,27,25.6,86,42,16.2
2019-04-14,23:56:53,37.41752,31.95312,37.41752,45.3718469959383,81.4420281914515,149.683800566505,44.533328577198,80.8530473189429,149.455330738768,-0.003208863316104,0.02549321949482,0.013403326272965,18.1226177215576,11.0851545333862,-13.6658010482788,28,57,26.1,87,14,14.6
2019-04-14,23:57:04,37.34703,32.08594,37.34703,16.2588025738991,202.932341468983,173.052049717274,16.413040198189,207.470756285646,173.529356996853,-0.001974685117602,0.023793673142791,0.012915932573378,18.1256141662598,11.8002548217773,-12.9706935882568,28,27,17.8,87,45,53
2019-04-14,23:57:15,37.36929,32.06696,37.36929,14.7410406252212,317.121131069981,139.803412837704,14.5705300752337,319.357580891054,140.041813760494,-0.004443041514605,0.025978805497289,0.013647023588419,17.9881057739258,12.1811952590942,-12.816577911377,27,57,0.9,88,17,11.8
2019-04-14,23:57:26,36.9649,31.99107,36.9649,45.7714677038974,81.8273191625319,154.655276697303,44.9232913976707,81.3811507153792,154.48084732628,-0.004196206107736,0.025007635354996,0.015840293839574,18.4388637542725,12.4641256332397,-12.6818418502808,27,26,35.6,88,48,11.5
2019-04-14,23:57:39,37.5214,32.10491,37.5214,13.3800468859207,213.9957999243,175.89357233654,13.4318769226637,218.230626492734,176.132738240517,-0.001234178198501,0.025007635354996,0.012428538873792,18.1948127746582,13.2166595458984,-12.3413524627686,26,50,28,89,24,25.5
2019-04-14,23:57:50,37.20605,32.01004,37.20605,17.6448221263185,327.993310077592,143.078406582455,17.4261877709864,329.980994163808,143.325276939816,-0.005924055352807,0.025978805497289,0.012428538873792,18.2945671081543,13.9925212860107,-12.6883611679077,26,19,45.3,89,54,45.4
2019-04-14,23:58:01,36.99087,32.10491,36.99087,44.4734517238391,96.7898252564961,165.666866696063,43.6793534403659,95.9013610794501,165.334577992942,-0.001727849594317,0.024764843285084,0.013403326272965,18.2581367492676,14.2080345153809,-12.0563106536865,25,48,55.1,90,24,47.8
2019-04-14,23:58:12,37.21347,32.06696,37.21347,11.4820730655839,213.015162344404,181.616386578884,11.5153967047707,217.157193962775,181.79647134654,-0.001481013838202,0.024764843285084,0.00999157037586,18.6517677307129,14.6523294448853,-11.5878982543945,25,17,57.5,90,54,33.2
2019-04-14,23:58:23,37.27283,32.16183,37.27283,15.9108317564436,328.519668360695,148.640079359435,15.7553595754612,330.334476943924,148.793608351598,-0.001727849594317,0.025736013427377,0.014134417288005,18.6441764831543,14.9049634933472,-11.7527084350586,24,46,52.7,91,24,2
2019-04-14,23:58:34,37.17266,32.19978,37.17266,42.8949847613654,96.1182059252196,170.596364484223,42.1310827442128,95.1992176327727,170.266247781258,-0.004936712794006,0.025250427424908,0.012672236189246,18.6873664855957,15.3285188674927,-11.9139604568481,24,15,41.1,91,53,14.7
2019-04-14,23:58:45,37.43979,32.06696,37.43979,10.1908795907327,212.477817702021,187.280826382116,10.2356873392353,216.724255592045,187.473219150656,-0.002962027676404,0.024764843285084,0.01535290107131,18.4371433258057,15.9844760894775,-11.8832225799561,23,44,22.8,92,22,11.8
2019-04-14,23:58:56,37.36929,32.08594,37.36929,14.3623578621627,327.624097371817,152.886326004162,14.1986271287001,329.572794738252,153.06615122463,-0.002715192036703,0.026464389637113,0.01218484248966,18.333158493042,16.7414016723633,-11.1079759597778,23,12,58.1,92,50,53.7
2019-04-14,23:59:07,37.08362,32.1808,37.08362,41.505112982254,94.6942822380012,174.765348029059,40.7837118172119,94.1202799703425,174.573747562461,-0.002715192036703,0.025250427424908,0.012915932573378,18.6738395690918,17.0688190460205,-10.8042297363281,22,41,27,93,19,20.9
2019-04-14,23:59:18,37.25799,32.19978,37.25799,8.86850203345215,210.245411352937,191.415317471643,8.93167786818018,214.598523137418,191.638869563177,-0.002715192036703,0.026221597567201,0.014134417288005,18.7046871185303,17.410306930542,-10.9086933135986,22,9,49.9,93,47,33.8
2019-04-14,23:59:29,37.32106,32.14286,37.32106,12.9139342863915,327.505931684082,157.650205365327,12.8612982873264,329.430573124259,157.707797520409,-0.001727849594317,0.025250427424908,0.011210055090487,18.6012668609619,18.0261249542236,-9.80221462249756,21,38,7,94,15,32.7
2019-04-14,23:59:40,37.23944,32.08594,37.23944,40.7659840612211,94.8535622494459,178.776677147472,40.047314971847,94.08285736388,178.519247317654,-0.003455699188635,0.02549321949482,0.012428538873792,18.9502773284912,18.494478225708,-9.9229154586792,21,6,18.4,94,43,18.3
2019-04-14,23:59:51,37.43607,32.1808,37.43607,8.81921965726957,210.426042535728,194.906623307408,8.8849687657674,214.747735450026,195.152400834502,-0.002468356397003,0.024279257282615,0.013647023588419,18.7563381195068,18.8206977844238,-9.71473217010498,20,34,24.3,95,10,50.8
2019-04-15,00:00:02,37.07991,32.14286,37.07991,11.6613458945029,327.653542317329,162.097819647164,11.5120644262294,329.590648852742,162.259927356926,-0.003455699188635,0.025736013427377,0.013403326272965,19.0532875061035,19.0986785888672,-9.92282676696777,20,2,25,95,38,10.7
2019-04-15,00:00:13,37.55109,32.1808,37.55109,38.7315336697574,94.472471844705,183.116719592347,38.0452226015761,93.7277626591202,182.880859499928,-0.004443041514605,0.024522049352527,0.015596598386765,18.9274806976318,19.8245735168457,-9.41092777252197,19,30,20.5,96,5,18.4
2019-04-15,00:00:24,37.2246,32.06696,37.2246,7.22737235421181,209.571708813964,199.469107710707,7.26173759724708,213.919711616946,199.588335492858,-0.001974685117602,0.02670718356967,0.014134417288005,18.668888092041,20.0015201568603,-7.91691207885742,18,58,11.1,96,32,14.2
2019-04-15,00:00:35,37.67352,32.1808,37.67352,10.2116766629817,327.71698794453,165.353374673538,10.200108030075,329.56058577511,165.365177240423,-0.001234178198501,0.025978805497289,0.012428538873792,18.8177528381348,20.4189357757568,-7.9438009262085,18,25,57,96,58,58.7
2019-04-15,00:00:46,37.05765,32.29464,37.05765,38.7358435191236,92.9475911313647,185.458969043663,38.0239158264603,92.2953353863852,185.246918990691,-0.005183548666537,0.02670718356967,0.014865507371724,18.9463768005371,20.8630237579346,-7.27076864242554,17,53,38.3,97,25,32.1
2019-04-15,00:00:57,37.27654,32.14286,37.27654,7.70971604452988,209.033025454503,202.441387471443,7.75614852428127,213.367682067847,202.607675256976,-0.003949370235205,0.026221597567201,0.010966357775033,19.2195358276367,21.4139823913574,-7.05439710617065,17,21,15.2,97,51,54.9
2019-04-15,00:01:08,37.55479,32.19978,37.55479,10.6941928155763,327.763207834643,169.307384844436,10.6408678211788,329.676900481581,169.364840395735,-0.001727849594317,0.02549321949482,0.011453751474619,18.8726806640625,21.7733974456787,-6.16760492324829,16,48,47.8,98,18,7.5
2019-04-15,00:01:19,36.97232,32.21875,36.97232,38.8072019204773,93.4115863722512,189.926800685443,38.135186438229,92.6730448474869,189.696992140629,-0.001234178198501,0.026221597567201,0.013159629888833,19.0316905975342,21.7833881378174,-6.0525860786438,16,16,16.3,98,44,10.1
2019-04-15,00:01:30,36.84988,32.2567,36.84988,8.16127521848505,209.022588925452,207.003038591662,8.17684378092445,213.256527569294,207.068471803911,-0.001727849594317,0.026949977502227,0.011697448790073,18.8463649749756,22.1583957672119,-5.92708969116211,15,43,41,99,10,3.3
2019-04-15,00:01:41,36.92409,32.2567,36.92409,10.7618714525147,327.378975542884,174.096768131963,10.704231486109,329.318305304872,174.160206928974,-0.001974685117602,0.02670718356967,0.013647023588419,19.1043529510498,21.9634437561035,-5.18688678741455,15,11,1.8,99,35,47.4
2019-04-15,00:01:52,36.82021,32.2567,36.82021,38.7717395783066,91.7329376101263,193.466764788856,38.1461659673197,91.0112871431794,193.255725603881,-0.001727849594317,0.024764843285084,0.01218484248966,19.3536834716797,22.4046878814697,-4.50160121917725,14,38,19.1,100,1,22.6
2019-04-15,00:02:03,37.41752,32.21875,37.41752,8.06454949455392,208.065679422733,211.166448702135,8.10416032287176,212.419023433646,211.303790145966,-0.002962027676404,0.025250427424908,0.016083991155028,19.1779708862305,22.8275604248047,-4.74603462219238,14,5,32.8,100,26,49.4
2019-04-15,00:02:13,37.16153,32.23772,37.16153,10.3939914874023,326.536939576721,177.028162380327,10.3413700024892,328.50954943544,177.087735290268,-0.001727849594317,0.024764843285084,0.014378113672137,19.0539531707764,22.8733005523682,-3.9483208656311,13,35,42.5,100,49,50.5
2019-04-15,00:02:24,37.00571,32.33259,37.00571,38.776534371104,91.4616083453475,196.626041468689,38.1385195705439,90.6965588564144,196.397954131545,-0.002962027676404,0.024764843285084,0.010478964075446,19.1165924072266,23.0274562835693,-3.59733414649963,13,2,50.1,101,15,2.2
2019-04-15,00:02:35,37.25428,32.19978,37.25428,8.58367119223157,208.420535070872,214.295535945837,8.63500774780703,212.679718093887,214.508337319617,-0.002962027676404,0.02549321949482,0.010478964075446,19.3237457275391,23.8123836517334,-3.255934715271,12,29,54.6,101,40,6.6
2019-04-15,00:02:46,36.69777,32.27567,36.69777,10.6573627280243,325.417956515187,180.654272472018,10.5707875189735,327.33510865294,180.747367950405,-0.003455699188635,0.026949977502227,0.012915932573378,19.3550395965576,24.3515567779541,-2.65044379234314,11,56,56.3,102,5,3.9
2019-04-15,00:02:57,37.28767,32.2567,37.28767,39.1757520979021,90.3868644190677,199.006567300113,38.4975894454007,89.8030676601392,198.824433475706,-0.001727849594317,0.025007635354996,0.015840293839574,19.3348217010498,25.0456142425537,-1.89060950279236,11,23,55.2,102,29,54.5
2019-04-15,00:03:08,37.15782,32.2567,37.15782,9.1789742585906,207.211646229293,217.376852846483,9.20043898183101,211.452893175547,217.466861079365,-0.001481013838202,0.023793673142791,0.012915932573378,19.1192951202393,25.3243789672852,-0.622130572795868,10,50,51.4,102,54,38.7
2019-04-15,00:03:19,36.90182,32.2567,36.90182,10.9791679445431,324.976770691034,183.738225825683,10.8494694823938,326.936748114882,183.882055949225,-0.005430384073406,0.026221597567201,0.014378113672137,19.4603481292725,25.5278854370117,-0.530470073223114,10,17,45.3,103,19,16.8
2019-04-15,00:03:30,37.11701,32.29464,37.11701,39.0080333877378,90.6250057946694,202.926590449702,38.38991492823,89.859546494386,202.704076546921,-0.002221520757303,0.025978805497289,0.01218484248966,19.4258270263672,25.4113101959229,0.154487565159798,9,44,36.7,103,43,49.3
2019-04-15,00:03:42,37.36558,32.33259,37.36558,7.18320152084934,208.036022741357,220.919357780267,7.20200844672897,212.251151044225,221.001224427658,-0.002221520757303,0.025978805497289,0.011210055090487,19.3589839935303,26.1285953521728,1.14064204692841,9,8,24.9,104,10,29.4
2019-04-15,00:03:53,36.60131,32.23772,36.60131,9.64297120702437,326.882642771372,187.299691364603,9.56667031003251,328.883505707592,187.387746163383,-0.003949370235205,0.02670718356967,0.016083991155028,19.7086620330811,25.8921337127686,1.38873958587646,8,35,11.9,104,34,51
2019-04-15,00:04:04,36.75713,32.31361,36.75713,37.6362684401162,91.0400080886393,206.753340535985,36.9839478083396,90.2695969012077,206.520936519286,-0.001481013838202,0.026464389637113,0.013890719972551,19.8050651550293,26.2840003967285,2.47035193443298,8,1,56.9,104,59,7.8
2019-04-15,00:04:15,36.89812,32.42746,36.89812,6.82315834403587,206.823486578761,224.516108076439,6.8076751589611,211.057848694332,224.453311317209,-0.001481013838202,0.02549321949482,0.012428538873792,19.7068176269531,26.8472385406494,3.05012798309326,7,28,40.2,105,23,20.2
2019-04-15,00:04:26,37.39526,32.35156,37.39526,8.81913342613129,325.581348300512,191.141918659545,8.78980971647714,327.57210938695,191.175646133667,-0.001481013838202,0.025007635354996,0.015109204687178,19.5305957794189,26.9926128387451,3.17892479896545,6,55,21.7,105,47,28.6
2019-04-15,00:04:37,36.83134,32.44643,36.83134,37.3300300784895,89.9978988062138,208.910751407982,36.7311795826303,89.4041777824213,208.746225811255,-0.002221520757303,0.025007635354996,0.014378113672137,19.8345394134521,27.1444492340088,3.66153311729431,6,22,1.7,106,11,33.2
2019-04-15,00:04:47,37.29138,32.37054,37.29138,6.53752580936146,205.714482423604,226.976219272072,6.60436646746603,210.11100689045,227.192695287627,-0.004443041514605,0.026464389637113,0.015596598386765,19.5495128631592,27.3365936279297,4.61685705184937,5,51,42.3,106,33,23.5
2019-04-15,00:04:58,36.69407,32.31361,36.69407,8.17199093151916,324.492640052474,193.49849784774,8.19451091898634,326.363398130289,193.475001996995,-0.001974685117602,0.02549321949482,0.011210055090487,19.6525249481201,27.9839725494385,5.34773826599121,5,18,19.7,106,57,21.7
2019-04-15,00:05:09,36.95006,32.50335,36.95006,37.4421373884315,88.3706267270258,211.280253314086,36.7991536252503,87.681201092583,211.076016997524,-0.002715192036703,0.024764843285084,0.010966357775033,19.8909187316895,28.0127429962158,6.72081613540649,4,44,55.9,107,21,17.1
2019-04-15,00:05:20,36.99087,32.37054,36.99087,7.43370980771696,205.168135591895,230.553394246083,7.41406874498494,209.522736357615,230.488247901779,-0.001974685117602,0.026464389637113,0.01218484248966,20.0097694396973,28.3239459991455,7.02026557922363,4,11,31,107,45,10
2019-04-15,00:05:31,37.1504,32.35156,37.1504,8.78078362148897,324.241302751396,197.446784320114,8.7107477155133,326.284038162323,197.530522439338,-0.004689877387136,0.025250427424908,0.013159629888833,19.9107570648193,28.3551635742187,7.98822498321533,3,38,5.2,108,9,0.6
2019-04-15,00:05:42,37.20234,32.27567,37.20234,37.5916365689848,88.3073791753115,215.688662310087,37.0149910181173,87.7339574737322,215.53475082733,-0.001234178198501,0.025007635354996,0.012915932573378,20.2109184265137,28.5808963775635,9.07738590240479,3,4,38.5,108,32,49.3
2019-04-15,00:05:53,36.9278,32.40848,36.9278,8.47936139700078,205.099068719008,234.658706767476,8.50404057801933,209.413712878083,234.74927507587,-0.001974685117602,0.025007635354996,0.010966357775033,19.7338085174561,28.7940330505371,9.87897300720215,2,31,11.2,108,56,36.3
2019-04-15,00:06:04,36.98716,32.40848,36.98716,9.8185864696428,323.757759509105,201.390822414825,9.7333653455949,325.683534760685,201.483016308241,-0.002468356397003,0.025978805497289,0.01218484248966,19.8855285644531,28.3510761260986,10.0881586074829,1,57,43.3,109,20,22
2019-04-15,00:06:15,37.02426,32.42746,37.02426,38.7527311618465,88.2477516238572,218.858758009565,38.0578891873919,87.6105359554301,218.655915051594,-0.003949370235205,0.025978805497289,0.013159629888833,19.7918300628662,28.4316997528076,10.5709953308105,1,24,14.9,109,44,6.7
2019-04-15,00:06:26,37.03168,32.37054,37.03168,8.72705052328847,205.399774627407,237.532754747569,8.73527492482282,209.742108373378,237.561236636408,-0.000987342558801,0.02549321949482,0.012672236189246,20.0262985229492,28.8099670410156,10.8886251449585,0,50,46.1,110,7,50.6
2019-04-15,00:06:37,37.08362,32.48438,37.08362,9.34397028459695,323.652403841158,204.396474479845,9.21468334134507,325.733545405788,204.5551807554,-0.004443041514605,0.025736013427377,0.01535290107131,20.2999267578125,28.6580238342285,12.0263776779175,0,17,17.1,110,31,34.2
2019-04-15,00:06:48,36.92409,32.37054,36.92409,37.9911958052413,87.8225860084023,221.318773582551,37.2796062069419,87.1899329063407,221.114291379179,-0.003949370235205,0.026949977502227,0.012672236189246,20.3599643707275,29.2824172973633,12.6610221862793,0,16,11.9,110,55,17.6
2019-04-15,00:06:59,36.88328,32.37054,36.88328,8.96344507800991,204.721386578663,240.504214885604,8.96415114881536,209.085522288464,240.506564470679,-0.001727849594317,0.024764843285084,0.014134417288005,20.7204914093018,28.6911010742187,13.3761644363403,0,49,41,111,19,1.2
2019-04-15,00:07:10,36.93522,32.31361,36.93522,9.29207536105684,322.825510404385,206.859017222823,9.27423832203935,324.809557414868,206.879466809198,-0.001727849594317,0.026221597567201,0.010722661390901,20.2348213195801,29.8152847290039,13.978123664856,1,23,9.9,111,42,45.2
2019-04-15,00:07:21,36.6347,32.50335,36.6347,38.3938047209623,86.6264218092471,224.221098545807,37.8045028295628,86.0390665217611,224.059441628532,-0.000987342558801,0.025736013427377,0.015109204687178,20.1734733581543,29.7568874359131,14.8387956619263,1,56,38.6,112,6,30.1
2019-04-15,00:07:32,36.82021,32.48438,36.82021,9.44314633889283,203.912528256393,243.989291588847,9.54255376584684,208.390687144199,244.28518904407,-0.003702534828335,0.02549321949482,0.013890719972551,19.8852672576904,29.5944786071777,15.9517593383789,2,30,6.9,112,30,16
2019-04-15,00:07:43,36.62729,32.38951,36.62729,9.54831673795904,321.686330473475,211.056318731958,9.51416408456168,323.687169504033,211.095961149901,-0.001727849594317,0.025250427424908,0.013647023588419,20.2777462005615,29.4590015411377,16.2197895050049,3,3,34.7,112,54,3.4
2019-04-15,00:07:53,37.0762,32.50335,37.0762,39.4523167026796,85.4925216145658,227.479877421469,38.7681025025736,85.0750809430621,227.349215902647,-0.003949370235205,0.026221597567201,0.014378113672137,19.8922119140625,29.1160354614258,17.507230758667,3,33,59.4,113,15,42.4
2019-04-15,00:08:05,36.80907,32.50335,36.80907,10.3188850197415,204.921757008154,247.412978551829,10.4160726352153,209.363360723522,247.721286460774,-0.001234178198501,0.026464389637113,0.012428538873792,19.6400699615479,29.0566730499268,18.5127182006836,4,10,28.3,113,41,43.4
2019-04-15,00:08:16,36.92038,32.44643,36.92038,10.8488966002771,322.199854831128,213.914384069393,10.7560760370039,324.160143028583,214.017847774941,-0.002221520757303,0.02670718356967,0.013647023588419,20.132532119751,29.4202213287353,18.995548248291,4,43,53.9,114,5,36.8
2019-04-15,00:08:26,36.63099,32.4654,36.63099,40.133211430849,86.5315914628107,231.745371539277,39.4477336457465,85.8903323223949,231.541654317092,-0.002468356397003,0.026221597567201,0.013890719972551,20.2055854797363,30.1562328338623,18.991397857666,5,14,16.3,114,27,22
2019-04-15,00:08:37,36.81279,32.4654,36.81279,10.0292986593113,204.316083153314,251.826230151952,10.0579820387308,208.728590262818,251.917276573588,-0.001974685117602,0.026221597567201,0.014134417288005,20.1052989959717,29.6933517456055,19.4512519836426,5,47,39.9,114,51,20.6
2019-04-15,00:08:48,36.9278,32.57924,36.9278,10.1417987051306,322.042886838717,218.166846186265,10.0951493668731,324.070425078741,218.222225360055,-0.001974685117602,0.025736013427377,0.013159629888833,20.3840599060059,30.178804397583,20.2585258483887,6,21,2.3,115,15,22.4
2019-04-15,00:08:59,37.00942,32.38951,37.00942,39.9337699070846,86.5612686347544,235.020283321758,39.2369642532437,85.9865355368545,234.835950176438,-0.003455699188635,0.02670718356967,0.01218484248966,20.2312355041504,29.7640895843506,21.4880104064941,6,54,23.4,115,39,27.7
2019-04-15,00:09:10,36.74971,32.52232,36.74971,9.95595608800374,205.224976426168,255.234781415733,10.0110808372476,209.622894251604,255.416990372222,-0.001727849594317,0.025978805497289,0.012428538873792,20.149112701416,29.6103343963623,21.8597774505615,7,27,43,116,3,36.8
2019-04-15,00:09:21,36.80165,32.50335,36.80165,10.7681731557977,323.013323531087,221.669913607781,10.7305704030958,325.088304265086,221.716550139434,-0.001727849594317,0.025978805497289,0.012672236189246,20.6857719421387,29.2321300506592,21.8282432556152,8,1,1,116,27,50.1
2019-04-15,00:09:32,36.74601,32.52232,36.74601,40.0491386323554,88.3464137064181,239.410264467379,39.3507859406674,87.6415859953969,239.182272752883,-0.002962027676404,0.027192767709494,0.01218484248966,20.7630939483643,29.5575904846191,22.8538131713867,8,34,17.2,116,52,7.8
2019-04-15,00:09:43,37.00571,32.50335,37.00571,10.452620977464,205.549956826877,258.650668302683,10.4814998710485,209.833496304472,258.764431933499,-0.001481013838202,0.026464389637113,0.012915932573378,20.6187133789062,28.8287105560303,24.2246685028076,9,7,31.6,117,16,30.4
2019-04-15,00:09:54,36.79424,32.4654,36.79424,10.9758510339274,322.747400361036,225.243946694773,10.8587380490975,324.83530039785,225.388951610853,-0.002468356397003,0.025007635354996,0.016327690333128,20.636287689209,29.0303115844727,24.6061725616455,9,40,44.1,117,40,58
